[
    {
        "id": "10-barrel-brewing-co-san-diego",
        "name": "10 Barrel Brewing Co",
        "brewery_type": "large",
        "street": "1501 E St",
        "address_2": null,
        "address_3": null,
        "city": "San Diego",
        "state": "California",
        "county_province": null,
        "postal_code": "92101-6618",
        "country": "United States",
        "longitude": "-117.129593",
        "latitude": "32.714813",
        "phone": "6195782311",
        "website_url": "http://10barrel.com",
        "updated_at": "2021-10-23T02:24:55.243Z",
        "created_at": "2021-10-23T02:24:55.243Z"
    },
    {
        "id": "101-north-brewing-company-petaluma",
        "name": "101 North Brewing Company",
        "brewery_type": "micro",
        "street": "1304 Scott St Ste D",
        "address_2": null,
        "address_3": null,
        "city": "Petaluma",
        "state": "California",
        "county_province": null,
        "postal_code": "94954-7100",
        "country": "United States",
        "longitude": null,
        "latitude": null,
        "phone": "7077534934",
        "website_url": "http://www.101northbeer.com",
        "updated_at": "2021-10-23T02:24:55.243Z",
        "created_at": "2021-10-23T02:24:55.243Z"
    },
    {
        "id": "14-cannons-brewing-company-westlake-village",
        "name": "14 Cannons Brewing Company",
        "brewery_type": "micro",
        "street": "31125 Via Colinas Ste 907",
        "address_2": null,
        "address_3": null,
        "city": "Westlake Village",
        "state": "California",
        "county_province": null,
        "postal_code": "91362-3974",
        "country": "United States",
        "longitude": "-118.802397",
        "latitude": "34.15334",
        "phone": "8186996165",
        "website_url": "http://14cannons.com",
        "updated_at": "2021-10-23T02:24:55.243Z",
        "created_at": "2021-10-23T02:24:55.243Z"
    },
    {
        "id": "1850-brewing-company-mariposa",
        "name": "1850 Brewing Company",
        "brewery_type": "micro",
        "street": null,
        "address_2": null,
        "address_3": null,
        "city": "Mariposa",
        "state": "California",
        "county_province": null,
        "postal_code": "95338",
        "country": "United States",
        "longitude": "-119.9036592",
        "latitude": "37.570148",
        "phone": null,
        "website_url": "http://www.1850restaurant.com",
        "updated_at": "2021-10-23T02:24:55.243Z",
        "created_at": "2021-10-23T02:24:55.243Z"
    },
    {
        "id": "2-tread-brewing-co-santa-rosa",
        "name": "2 Tread Brewing Co",
        "brewery_type": "brewpub",
        "street": "1018 Santa Rosa Plz",
        "address_2": null,
        "address_3": null,
        "city": "Santa Rosa",
        "state": "California",
        "county_province": null,
        "postal_code": "95401-6399",
        "country": "United States",
        "longitude": "-122.7167729",
        "latitude": "38.4387767",
        "phone": "4152330857",
        "website_url": "http://www.2treadbrewing.com",
        "updated_at": "2021-10-23T02:24:55.243Z",
        "created_at": "2021-10-23T02:24:55.243Z"
    },
    {
        "id": "21st-amendment-brewery-cafe-san-francisco",
        "name": "21st Amendment Brewery Cafe",
        "brewery_type": "brewpub",
        "street": "563 2nd St",
        "address_2": null,
        "address_3": null,
        "city": "San Francisco",
        "state": "California",
        "county_province": null,
        "postal_code": "94107-1411",
        "country": "United States",
        "longitude": "-122.3925769",
        "latitude": "37.782448",
        "phone": "4153690900",
        "website_url": "http://www.21st-amendment.com",
        "updated_at": "2021-10-23T02:24:55.243Z",
        "created_at": "2021-10-23T02:24:55.243Z"
    },
    {
        "id": "21st-amendment-brewery-san-leandro",
        "name": "21st Amendment Brewery",
        "brewery_type": "regional",
        "street": "2010 Williams St Unit A",
        "address_2": null,
        "address_3": null,
        "city": "San Leandro",
        "state": "California",
        "county_province": null,
        "postal_code": "94577-2334",
        "country": "United States",
        "longitude": null,
        "latitude": null,
        "phone": "5105952111",
        "website_url": "http://www.21st-Amendment.com",
        "updated_at": "2021-10-23T02:24:55.243Z",
        "created_at": "2021-10-23T02:24:55.243Z"
    },
    {
        "id": "2kids-brewing-company-san-diego",
        "name": "2Kids Brewing Company",
        "brewery_type": "micro",
        "street": "8680 Miralani Dr Ste 123",
        "address_2": null,
        "address_3": null,
        "city": "San Diego",
        "state": "California",
        "county_province": null,
        "postal_code": "92126-6391",
        "country": "United States",
        "longitude": "-117.137429",
        "latitude": "32.896584",
        "phone": "8584805437",
        "website_url": "http://www.2kidsBrewing.com",
        "updated_at": "2021-10-23T02:24:55.243Z",
        "created_at": "2021-10-23T02:24:55.243Z"
    },
    {
        "id": "3-disciples-brewing-sebastopol",
        "name": "3 Disciples Brewing",
        "brewery_type": "micro",
        "street": null,
        "address_2": null,
        "address_3": null,
        "city": "Sebastopol",
        "state": "California",
        "county_province": null,
        "postal_code": "95472-5937",
        "country": "United States",
        "longitude": "-122.8332502",
        "latitude": "38.3845125",
        "phone": "7072287309",
        "website_url": "http://www.3disciplesbrewing.com/home",
        "updated_at": "2021-10-23T02:24:55.243Z",
        "created_at": "2021-10-23T02:24:55.243Z"
    },
    {
        "id": "3-iron-brewing-company-colton",
        "name": "3 Iron Brewing Company",
        "brewery_type": "micro",
        "street": "898 Via Lata Ste A",
        "address_2": null,
        "address_3": null,
        "city": "Colton",
        "state": "California",
        "county_province": null,
        "postal_code": "92324-3920",
        "country": "United States",
        "longitude": null,
        "latitude": null,
        "phone": "9095334892",
        "website_url": "http://www.3ironbrewingco.com",
        "updated_at": "2021-10-23T02:24:55.243Z",
        "created_at": "2021-10-23T02:24:55.243Z"
    }
]
